[
  {
    "Id": "1e21f4bf-0f1c-42f0-99ba-e853afbb07d5",
    "Name": "金鼎总站",
    "Lng": "113.531511",
    "Lat": "22.395708",
    "onWork": 30,
    "Description": ""
  },
  {
    "Id": "cc90306b-20eb-4eee-8735-acf9074dc6e5",
    "Name": "中珠桥",
    "Lng": "113.530745",
    "Lat": "22.391665",
    "onWork": 29,
    "Description": ""
  },
  {
    "Id": "3e6d1e9b-b189-4b14-a6c4-857f4443fe2c",
    "Name": "上栅",
    "Lng": "113.530035",
    "Lat": "22.388100",
    "onWork": 28,
    "Description": ""
  },
  {
    "Id": "0572852f-21a2-46ce-8cc5-024b4c1a4990",
    "Name": "金鼎",
    "Lng": "113.531037",
    "Lat": "22.385148",
    "onWork": 27,
    "Description": ""
  },
  {
    "Id": "d73f70a9-d8a0-4bca-9bdd-9f2448df3d6f",
    "Name": "金鼎医院",
    "Lng": "113.533265",
    "Lat": "22.383058",
    "onWork": 26,
    "Description": ""
  },
  {
    "Id": "979fb797-8f8c-4be4-ab5c-5d827d67cfea",
    "Name": "金鼎市场",
    "Lng": "113.538383",
    "Lat": "22.383317",
    "onWork": 25,
    "Description": ""
  },
  {
    "Id": "ec5e7018-f333-4f46-8e68-d72edb4c3710",
    "Name": "下栅",
    "Lng": "113.541312",
    "Lat": "22.383483",
    "onWork": 24,
    "Description": ""
  },
  {
    "Id": "8891bd56-e616-4c5c-a320-61187827fba0",
    "Name": "官塘",
    "Lng": "113.548082",
    "Lat": "22.380580",
    "onWork": 23,
    "Description": ""
  },
  {
    "Id": "256ef37f-645d-46b2-82e4-69a25d8fb1a9",
    "Name": "宝莱特科技",
    "Lng": "113.554227",
    "Lat": "22.376843",
    "onWork": 22,
    "Description": ""
  },
  {
    "Id": "70b0d0e6-f336-4e22-a98e-7daf79df5017",
    "Name": "国际赛车场",
    "Lng": "113.560173",
    "Lat": "22.375410",
    "onWork": 21,
    "Description": ""
  },
  {
    "Id": "3f0e797d-cf48-4ee9-b183-30f8c427d7e0",
    "Name": "白沙经济港",
    "Lng": "113.563657",
    "Lat": "22.375710",
    "onWork": 20,
    "Description": ""
  },
  {
    "Id": "878050c4-6df3-443c-b828-5bed974256f0",
    "Name": "南方软件园",
    "Lng": "113.569040",
    "Lat": "22.376513",
    "onWork": 19,
    "Description": ""
  },
  {
    "Id": "26e6f9ab-6d71-44bc-8077-16b86529a3a6",
    "Name": "珍珠乐园",
    "Lng": "113.575947",
    "Lat": "22.375520",
    "onWork": 18,
    "Description": ""
  },
  {
    "Id": "497dd86a-03b8-4b3e-9894-1f4e921e5014",
    "Name": "海怡湾畔",
    "Lng": "113.587213",
    "Lat": "22.371210",
    "onWork": 17,
    "Description": ""
  },
  {
    "Id": "5df26dce-86a3-4474-93fa-3eef049d70e2",
    "Name": "渔村",
    "Lng": "113.589867",
    "Lat": "22.370220",
    "onWork": 16,
    "Description": ""
  },
  {
    "Id": "b1d3c3e6-f1a1-48eb-ab5c-82ab2a4434bc",
    "Name": "裕华公司",
    "Lng": "113.594927",
    "Lat": "22.368257",
    "onWork": 15,
    "Description": ""
  },
  {
    "Id": "4e660980-18dc-46ce-82f8-b5bdcd8cdbf9",
    "Name": "唐家市场",
    "Lng": "113.594163",
    "Lat": "22.361467",
    "onWork": 14,
    "Description": ""
  },
  {
    "Id": "c79b96ca-324e-4609-a922-2450070e4fdc",
    "Name": "唐家",
    "Lng": "113.592342",
    "Lat": "22.358032",
    "onWork": 13,
    "Description": ""
  },
  {
    "Id": "719a4f67-dfb5-4822-a9cd-b8d3aec1518e",
    "Name": "白埔路口",
    "Lng": "113.589777",
    "Lat": "22.354210",
    "onWork": 12,
    "Description": ""
  },
  {
    "Id": "3a36a475-daf7-4127-a258-4ea4dd34c223",
    "Name": "中山大学",
    "Lng": "113.587692",
    "Lat": "22.350598",
    "onWork": 11,
    "Description": ""
  },
  {
    "Id": "f038d120-8afb-4d8d-b26f-7d97be5285bf",
    "Name": "鸡山",
    "Lng": "113.589063",
    "Lat": "22.340107",
    "onWork": 10,
    "Description": ""
  },
  {
    "Id": "0df76527-737e-4373-9d69-acf8e5636513",
    "Name": "鸡山南",
    "Lng": "113.590275",
    "Lat": "22.337194",
    "onWork": 9,
    "Description": ""
  },
  {
    "Id": "0b9a4590-2b9e-45c3-af50-d106a8ed57e4",
    "Name": "银坑",
    "Lng": "113.598778",
    "Lat": "22.321192",
    "onWork": 8,
    "Description": ""
  },
  {
    "Id": "c101e8bd-4872-4696-9dc8-478a2ac81957",
    "Name": "银星花园",
    "Lng": "113.594900",
    "Lat": "22.318023",
    "onWork": 7,
    "Description": ""
  },
  {
    "Id": "0f9c6f36-c225-49f0-b1a4-817dc75c5be6",
    "Name": "美丽湾",
    "Lng": "113.578558",
    "Lat": "22.311272",
    "onWork": 6,
    "Description": ""
  },
  {
    "Id": "1d3430bf-fe66-4e0e-abea-e659228aa11d",
    "Name": "契爷岭",
    "Lng": "113.575677",
    "Lat": "22.305808",
    "onWork": 5,
    "Description": ""
  },
  {
    "Id": "4ed3fc33-29d7-45f3-ae31-2d39c8583619",
    "Name": "水拥坑海天公园",
    "Lng": "113.571681",
    "Lat": "22.301553",
    "onWork": 4,
    "Description": ""
  },
  {
    "Id": "40f98714-310c-45f0-83ee-5b392bf1e4cd",
    "Name": "中大五院",
    "Lng": "113.568775",
    "Lat": "22.299097",
    "onWork": 3,
    "Description": ""
  },
  {
    "Id": "a276c4c2-df2a-4e52-9735-7849c65dea86",
    "Name": "华子石东",
    "Lng": "113.567525",
    "Lat": "22.294500",
    "onWork": 2,
    "Description": ""
  },
  {
    "Id": "7ac9625b-0bae-41db-92e4-306fd4f6a039",
    "Name": "华子石西",
    "Lng": "113.564342",
    "Lat": "22.291458",
    "onWork": 1,
    "Description": ""
  },
  {
    "Id": "53c548d7-b594-48f8-a751-fd69ba010822",
    "Name": "梅华东",
    "Lng": "113.562319",
    "Lat": "22.290275",
    "Description": "",
    "onWork": 0
  },
  {
    "Id": "679992f2-49d2-48b1-9f7c-0180d20bce56",
    "Name": "党校",
    "Lng": "113.558558",
    "Lat": "22.288361",
    "Description": ""
  },
  {
    "Id": "d4d0d7b1-3597-48a1-9ba3-ed46fa0197d2",
    "Name": "大镜山",
    "Lng": "113.555303",
    "Lat": "22.287544",
    "Description": ""
  },
  {
    "Id": "550ccdd2-c0b1-44b1-ad6d-54a5e00b3892",
    "Name": "城市广场",
    "Lng": "113.551925",
    "Lat": "22.283511",
    "Description": ""
  },
  {
    "Id": "5c4b0b51-c311-43bc-b314-fd0eec227819",
    "Name": "兴业中",
    "Lng": "113.552882",
    "Lat": "22.275893",
    "Description": ""
  },
  {
    "Id": "419aae94-bc4d-4d7f-85fc-2cbc52a9df5f",
    "Name": "新村",
    "Lng": "113.549798",
    "Lat": "22.274052",
    "Description": ""
  },
  {
    "Id": "8bf54dea-da64-4f61-b5be-a3f8090cc1ce",
    "Name": "南村",
    "Lng": "113.540685",
    "Lat": "22.272480",
    "Description": ""
  },
  {
    "Id": "7a2b8cd7-b1ae-4121-9435-7e684b8bdf4c",
    "Name": "香洲区府",
    "Lng": "113.534852",
    "Lat": "22.271537",
    "offWork": 0,
    "Description": ""
  },
  {
    "Id": "e8de03d1-6001-44d0-b6e2-4a2d2ee9ae2b",
    "Name": "红山、仁恒星园",
    "Lng": "113.531358",
    "Lat": "22.270957",
    "offWork": 1,
    "Description": ""
  },
  {
    "Id": "32681541-8d84-4077-bf19-5f9547f758b8",
    "Name": "安居园",
    "Lng": "113.526068",
    "Lat": "22.270147",
    "offWork": 2,
    "Description": ""
  },
  {
    "Id": "76c82cc4-394e-46ef-b6de-d972aadb95d6",
    "Name": "新香洲万家",
    "Lng": "113.522370",
    "Lat": "22.269587",
    "offWork": 3,
    "Description": ""
  },
  {
    "Id": "5b7d996a-8cb3-42d1-b264-add76e40f949",
    "Name": "恒隆学校",
    "Lng": "113.520018",
    "Lat": "22.267975",
    "offWork": 4,
    "Description": ""
  },
  {
    "Id": "f38203b1-2448-4ca5-996f-d7943cfeb94d",
    "Name": "健华医院",
    "Lng": "113.520427",
    "Lat": "22.264573",
    "offWork": 5,
    "Description": ""
  },
  {
    "Id": "7786743d-058e-4bba-ad94-efec82493224",
    "Name": "翠花苑",
    "Lng": "113.522968",
    "Lat": "22.263427",
    "offWork": 6,
    "Description": ""
  }
]
